     2.11           OBSERVATION DATA    M                   RINEX VERSION / TYPE
DPM-RINEX 1.0       SAPCORDA            17-MAR-20 06:21     PGM / RUN BY / DATE
SLIB_                                                       MARKER NAME
65535                                                       MARKER NUMBER
SAPCORDA            SAPCORDA                                OBSERVER / AGENCY
                                                            REC # / TYPE / VERS
                                                            ANT # / TYPE
 -2705297.4080 -4283455.6310  3861823.9550                  APPROX POSITION XYZ
        0.0000        0.0000        0.0000                  ANTENNA: DELTA H/E/N
     1     1                                                WAVELENGTH FACT L1/2
     8    C1    L1    P1    C2    L2    P2    S1    S2      # / TYPES OF OBSERV
     1                                                      INTERVAL
  2020     3    17     6    21   30.0000000     GPS         TIME OF FIRST OBS
    18                                                      LEAP SECONDS
                                                            END OF HEADER
 20  3 17  6 21 30.0000000  0  7G13G15G16G20G21G25G29
  23308759.167   122488348.411 0                                  95445475.687 0
  23308758.892                                  
  21885533.329   115009240.082 0                  21885533.466    89617588.945 0
  21885533.406                                  
  23252264.761   122191485.302 0                                  95214125.765 0
  23252264.389                                  
  21019418.459   110457794.244 0                                  86070989.404 0
  21019418.209                                  
  21298430.457   111923991.395 0                                  87213502.337 0
  21298429.337                                  
  25245912.637   132668140.195 0                  25245916.301   103377745.277 0
  25245916.121                                  
  20979456.604   110247808.981 0                  20979456.737    85907367.803 0
  20979456.697                                  

 20  3 17  6 21 35.0000000  0  7G13G15G16G20G21G25G29
  23308646.566   122487756.692 0                                  95445014.607 0
  23308646.292                                  
  21884435.305   115003469.930 0                  21884435.442    89613092.722 0
  21884435.382                                  
  23250968.821   122184675.094 0                                  95208819.109 0
  23250968.449                                  
  21017501.538   110447720.755 0                                  86063139.932 0
  21017501.288                                  
  21298054.209   111922014.197 0                                  87211961.664 0
  21298053.089                                  
  25249276.243   132685816.062 0                  25249279.907   103391518.680 0
  25249279.727                                  
  20981164.707   110256785.120 0                  20981164.839    85914362.197 0
  20981164.799                                  

 20  3 17  6 21 40.0000000  0  7G13G15G16G20G21G25G29
  23308536.942   122487180.612 0                                  95444565.713 0
  23308536.668                                  
  21883340.232   114997715.280 0                  21883340.369    89608608.579 0
  21883340.309                                  
  23249675.770   122177880.065 0                                  95203524.281 0
  23249675.398                                  
  21015586.617   110437657.781 0                                  86055298.653 0
  21015586.367                                  
  21297678.589   111920040.302 0                                  87210423.564 0
  21297677.469                                  
  25252639.173   132703488.381 0                  25252642.837   103405289.318 0
  25252642.657                                  
  20982875.061   110265773.093 0                  20982875.193    85921365.812 0
  20982875.153                                  

 20  3 17  6 21 45.0000000  0  7G13G15G16G20G21G25G29
  23308430.310   122486620.258 0                                  95444129.074 0
  23308430.036                                  
  21882248.124   114991976.214 0                  21882248.261    89604136.579 0
  21882248.201                                  
  23248385.627   122171100.315 0                                  95198241.359 0
  23248385.255                                  
  21013673.712   110427605.397 0                                  86047465.627 0
  21013673.462                                  
  21297303.610   111918069.771 0                                  87208888.085 0
  21297302.489                                  
  25256001.442   132721157.225 0                  25256005.107   103419057.249 0
  25256004.927                                  
  20984587.677   110274772.949 0                  20984587.809    85928378.687 0
  20984587.769                                  

 20  3 17  6 21 50.0000000  0  7G13G15G16G20G21G25G29
  23308326.682   122486075.688 0                                  95443704.733 0
  23308326.408                                  
  21881158.993   114986252.793 0                  21881159.130    89599676.771 0
  21881159.070                                  
  23247098.404   122164335.913 0                                  95192970.397 0
  23247098.032                                  
  21011762.831   110417563.650 0                                  86039640.889 0
  21011762.581                                  
  21296929.287   111916102.689 0                                  87207355.294 0
  21296928.166                                  
  25259363.056   132738822.626 0                  25259366.721   103432822.496 0
  25259366.541                                  
  20986302.565   110283784.749 0                  20986302.698    85935400.869 0
  20986302.658                                  

 20  3 17  6 21 55.0000000  0  7G13G15G16G20G21G25G29
  23308226.081   122485547.029 0                                  95443292.792 0
  23308225.807                                  
  21880072.871   114980545.184 0                  21880073.008    89595229.284 0
  21880072.948                                  
  23245814.127   122157586.991 0                                  95187711.496 0
  23245813.755                                  
  21009853.995   110407532.647 0                                  86031824.523 0
  21009853.745                                  
  21296555.649   111914139.212 0                                  87205825.312 0
  21296554.529                                  
  25262724.041   132756484.719 0                  25262727.705   103446585.166 0
  25262727.525                                  
  20988019.756   110292808.649 0                  20988019.889    85942432.479 0
  20988019.849                                  

 20  3 17  6 22  0.0000000  0 14G10G13G15G16G20G21G25G29R 5R 7R13R20
                                R21R22
  23542401.059   123716142.549 0                  23542403.971    96402166.923 0
  23542404.391                                  
  23308128.431   122485033.936 0                                  95442892.987 0
  23308128.113                                  
  21878989.681   114974853.048 0                  21878989.813    89590793.862 0
  21878989.733                                  
  23244532.734   122150853.177 0                                  95182464.367 0
  23244532.378                                  
  21007947.133   110397512.088 0                                  86024016.304 0
  21007946.879                                  
  21296182.616   111912178.902 0                                  87204297.796 0
  21296181.476                                  
  25266084.324   132774143.206 0                  25266087.944   103460345.038 0
  25266087.764                                  
  20989739.179   110301844.205 0                  20989739.316    85949473.153 0
  20989739.276                                  
  23568374.733   125986466.224 0                  23568375.195    97989472.829 0
                                                
  20472437.698   109590549.829 0                  20472438.372    85237091.003 0
                                                
  23745665.968   126800501.431 0                  23745667.219    98622601.913 0
                                                
  23651373.810   126474493.169 0                  23651377.625    98369039.030 0
                                                
  20037521.267   107224834.207 0                  20037521.364    83397093.007 0
                                                
  21043916.762   112333869.620 0                  21043916.865    87370790.712 0
                                                
 20  3 17  6 22  5.0000000  0 14G10G13G15G16G20G21G25G29R 5R 7R13R20
                                R21R22
  23539383.371   123700284.492 0                  23539386.283    96389809.995 0
  23539386.703                                  
  23308033.833   122484536.819 0                                  95442505.623 0
  23308033.515                                  
  21877909.522   114969176.774 0                  21877909.654    89586370.791 0
  21877909.574                                  
  23243254.303   122144134.980 0                                  95177229.408 0
  23243253.948                                  
  21006042.346   110387502.364 0                                  86016216.519 0
  21006042.092                                  
  21295810.285   111910222.288 0                                  87202773.162 0
  21295809.144                                  
  25269443.988   132791798.356 0                  25269447.607   103474102.298 0
  25269447.427                                  
  20991460.916   110310891.992 0                  20991461.053    85956523.377 0
  20991461.013                                  
  23572148.209   126006637.614 0                  23572148.671    98005161.689 0
                                                
  20469472.898   109574679.022 0                  20469473.572    85224747.042 0
                                                
  23745202.259   126798025.254 0                  23745203.511    98620675.998 0
                                                
  23653935.632   126488192.382 0                  23653939.447    98379693.974 0
                                                
  20037958.657   107227174.766 0                  20037958.754    83398913.442 0
                                                
  21041688.230   112321973.565 0                  21041688.333    87361538.225 0
                                                
 20  3 17  6 22 10.0000000  0 14G10G13G15G16G20G21G25G29R 5R 7R13R20
                                R21R22
  23536366.798   123684432.292 0                  23536369.710    96377457.632 0
  23536370.130                                  
  23307942.207   122484055.321 0                                  95442130.429 0
  23307941.889                                  
  21876832.320   114963516.043 0                  21876832.453    89581959.832 0
  21876832.373                                  
  23241978.774   122137432.027 0                                  95172006.328 0
  23241978.418                                  
  21004139.561   110377503.163 0                                  86008424.934 0
  21004139.307                                  
  21295438.595   111908269.047 0                                  87201251.156 0
  21295437.455                                  
  25272802.963   132809449.892 0                  25272806.583   103487856.742 0
  25272806.403                                  
  20993184.900   110319951.589 0                  20993185.037    85963582.803 0
  20993184.997                                  
  23575922.936   126026815.695 0                  23575923.398    98020855.751 0
                                                
  20466510.972   109558823.604 0                  20466511.647    85212415.050 0
                                                
  23744742.209   126795568.612 0                  23744743.461    98618765.276 0
                                                
  23656498.465   126501897.006 0                  23656502.281    98390353.126 0
                                                
  20038397.882   107229525.147 0                  20038397.979    83400741.515 0
                                                
  21039460.315   112310080.802 0                  21039460.418    87352288.298 0
                                                
 20  3 17  6 22 15.0000000  0 14G10G13G15G16G20G21G25G29R 5R 7R13R20
                                R21R22
  23533351.364   123668586.083 0                  23533354.276    96365109.937 0
  23533354.696                                  
  23307853.579   122483589.580 0                                  95441767.514 0
  23307853.261                                  
  21875758.106   114957871.011 0                  21875758.239    89577561.106 0
  21875758.159                                  
  23240706.176   122130744.483 0                                  95166795.255 0
  23240705.821                                  
  21002238.808   110367514.636 0                                  86000641.666 0
  21002238.554                                  
  21295067.550   111906319.189 0                                  87199731.786 0
  21295066.409                                  
  25276161.279   132827097.961 0                  25276164.898   103501608.483 0
  25276164.718                                  
  20994911.155   110329023.118 0                  20994911.292    85970651.527 0
  20994911.252                                  
  23579698.965   126047000.736 0                  23579699.428    98036555.228 0
                                                
  20463551.941   109542983.677 0                  20463552.615    85200095.107 0
                                                
  23744285.821   126793131.525 0                  23744287.073    98616869.764 0
                                                
  23659062.303   126515606.996 0                  23659066.119    98401016.452 0
                                                
  20038838.983   107231885.568 0                  20038839.080    83402577.398 0
                                                
  21037233.020   112298191.349 0                  21037233.123    87343040.945 0
                                                
 20  3 17  6 22 20.0000000  0 14G10G13G15G16G20G21G25G29R 5R 7R13R20
                                R21R22
  23530337.072   123652745.871 0                  23530339.984    96352766.915 0
  23530340.404                                  
  23307767.959   122483139.644 0                                  95441416.914 0
  23307767.641                                  
  21874686.878   114952241.666 0                  21874687.010    89573174.603 0
  21874686.930                                  
  23239436.504   122124072.310 0                                  95161596.159 0
  23239436.149                                  
  21000340.076   110357536.733 0                                  85992866.677 0
  21000339.822                                  
  21294697.152   111904372.735 0                                  87198215.069 0
  21294696.011                                  
  25279518.923   132844742.498 0                  25279522.542   103515357.473 0
  25279522.362                                  
  20996639.680   110338106.578 0                  20996639.817    85977729.548 0
  20996639.777                                  
  23583476.279   126067192.644 0                  23583476.742    98052260.046 0
                                                
  20460595.788   109527159.160 0                  20460596.463    85187787.150 0
                                                
  23743833.119   126790714.124 0                  23743834.371    98614989.563 0
                                                
  23661627.164   126529322.460 0                  23661630.979    98411684.035 0
                                                
  20039281.911   107234255.768 0                  20039282.008    83404420.887 0
                                                
  21035006.370   112286305.342 0                  21035006.473    87333796.273 0
                                                
 20  3 17  6 22 25.0000000  0 14G10G13G15G16G20G21G25G29R 5R 7R13R20
                                R21R22
  23527323.925   123636911.675 0                  23527326.837    96340428.580 0
  23527327.257                                  
  23307685.335   122482705.451 0                                  95441078.583 0
  23307685.017                                  
  21873618.642   114946628.048 0                  21873618.775    89568800.356 0
  21873618.695                                  
  23238169.756   122117415.504 0                                  95156409.038 0
  23238169.400                                  
  20998443.371   110347569.480 0                                  85985099.986 0
  20998443.117                                  
  21294327.397   111902429.663 0                                  87196700.987 0
  21294326.257                                  
  25282875.896   132862383.514 0                  25282879.516   103529103.719 0
  25282879.336                                  
  20998370.474   110347201.967 0                  20998370.612    85984816.864 0
  20998370.572                                  
  23587254.873   126087391.391 0                  23587255.335    98067970.182 0
                                                
  20457642.532   109511350.146 0                  20457643.206    85175491.250 0
                                                
  23743384.144   126788316.622 0                  23743385.396    98613124.839 0
                                                
  23664193.016   126543043.226 0                  23664196.832    98422355.741 0
                                                
  20039726.714   107236635.999 0                  20039726.812    83406272.178 0
                                                
  21032780.338   112274422.630 0                  21032780.441    87324554.164 0
                                                
 20  3 17  6 22 30.0000000  0 14G10G13G15G16G20G21G25G29R 5R 7R13R20
                                R21R22
  23524311.881   123621083.472 0                  23524314.815    96328094.939 0
  23524315.235                                  
  23307605.660   122482287.003 0                                  95440752.547 0
  23307605.353                                  
  21872553.361   114941030.088 0                  21872553.465    89564438.334 0
  21872553.385                                  
  23236905.893   122110773.993 0                                  95151233.844 0
  23236905.508                                  
  20996548.638   110337612.836 0                                  85977341.597 0
  20996548.396                                  
  21293958.243   111900489.917 0                                  87195189.513 0
  21293957.099                                  
  25286232.156   132880020.993 0                  25286235.736   103542847.235 0
  25286235.556                                  
  21000103.501   110356309.188 0                  21000103.638    85991913.392 0
  21000103.578                                  
  23591034.702   126107596.831 0                  23591035.166    98083685.527 0
                                                
  20454692.155   109495556.566 0                  20454692.822    85163207.369 0
                                                
  23742938.837   126785938.574 0                  23742940.017    98611275.196 0
                                                
  23666759.896   126556769.263 0                  23666763.685    98433031.492 0
                                                
  20040173.358   107239026.069 0                  20040173.456    83408131.111 0
                                                
  21030554.901   112262543.222 0                  21030554.997    87315314.639 0
                                                
 20  3 17  6 22 35.0000000  0 14G10G13G15G16G20G21G25G29R 5R 7R13R20
                                R21R22
  23521301.023   123605261.305 0                  23521303.957    96315765.977 0
  23521304.377                                  
  23307529.050   122481884.414 0                                  95440438.841 0
  23307528.743                                  
  21871491.085   114935447.793 0                  21871491.190    89560088.494 0
  21871491.110                                  
  23235644.994   122104147.927 0                                  95146070.675 0
  23235644.610                                  
  20994655.986   110327666.879 0                                  85969591.500 0
  20994655.743                                  
  21293589.788   111898553.672 0                                  87193680.751 0
  21293588.644                                  
  25289587.786   132897654.943 0                  25289591.365   103556587.976 0
  25289591.185                                  
  21001838.840   110365428.458 0                  21001838.977    85999019.316 0
  21001838.917                                  
  23594815.857   126127809.274 0                  23594816.321    98099406.316 0
                                                
  20451744.707   109479778.647 0                  20451745.374    85150935.654 0
                                                
  23742497.268   126783580.616 0                  23742498.448    98609441.229 0
                                                
  23669327.787   126570500.931 0                  23669331.576    98443711.678 0
                                                
  20040621.898   107241426.295 0                  20040621.996    83409997.953 0
                                                
  21028330.155   112250667.379 0                  21028330.251    87306077.872 0
                                                
 20  3 17  6 22 40.0000000  0 14G10G13G15G16G20G21G25G29R 5R 7R13R20
                                R21R22
  23518291.331   123589445.268 0                  23518294.265    96303441.793 0
  23518294.685                                  
  23307455.464   122481497.716 0                                  95440137.518 0
  23307455.157                                  
  21870431.831   114929881.377 0                  21870431.936    89555751.026 0
  21870431.856                                  
  23234387.047   122097537.371 0                                  95140919.593 0
  23234386.663                                  
  20992765.387   110317731.716 0                                  85961849.815 0
  20992765.145                                  
  21293222.000   111896620.934 0                                  87192174.721 0
  21293220.856                                  
  25292942.762   132915285.465 0                  25292946.342   103570326.045 0
  25292946.162                                  
  21003576.464   110374559.733 0                  21003576.601    86006134.596 0
  21003576.541                                  
  23598598.256   126148028.362 0                  23598598.720    98115132.273 0
                                                
  20448800.100   109464015.935 0                  20448800.767    85138675.767 0
                                                
  23742059.365   126781242.239 0                  23742060.545    98607622.491 0
                                                
  23671896.661   126584237.857 0                  23671900.451    98454395.954 0
                                                
  20041072.287   107243836.421 0                  20041072.385    83411872.495 0
                                                
  21026106.023   112238794.811 0                  21026106.119    87296843.653 0
                                                
 20  3 17  6 22 45.0000000  0 14G10G13G15G16G20G21G25G29R 5R 7R13R20
                                R21R22
  23515282.757   123573635.106 0                  23515285.691    96291122.186 0
  23515286.111                                  
  23307384.848   122481126.629 0                                  95439848.359 0
  23307384.541                                  
  21869375.547   114924330.564 0                  21869375.651    89551425.718 0
  21869375.571                                  
  23233131.999   122090942.047 0                                  95135780.379 0
  23233131.615                                  
  20990876.785   110307807.048 0                                  85954116.307 0
  20990876.543                                  
  21292854.830   111894691.441 0                                  87190671.220 0
  21292853.685                                  
  25296297.025   132932912.233 0                  25296300.604   103584061.188 0
  25296300.424                                  
  21005316.324   110383702.760 0                  21005316.461    86013259.032 0
  21005316.401                                  
  23602381.908   126168254.150 0                  23602382.372    98130863.442 0
                                                
  20445858.399   109448268.780 0                  20445859.066    85126427.980 0
                                                
  23741625.145   126778923.528 0                  23741626.325    98605819.049 0
                                                
  23674466.543   126597980.169 0                  23674470.332    98465084.419 0
                                                
  20041524.530   107246256.462 0                  20041524.628    83413754.750 0
                                                
  21023882.514   112226925.569 0                  21023882.610    87287612.020 0
                                                
 20  3 17  6 22 50.0000000  0 14G10G13G15G16G20G21G25G29R 5R 7R13R20
                                R21R22
  23512275.355   123557831.099 0                  23512278.289    96278807.375 0
  23512278.709                                  
  23307317.266   122480771.481 0                                  95439571.620 0
  23307316.959                                  
  21868322.283   114918795.626 0                  21868322.388    89547112.779 0
  21868322.308                                  
  23231879.908   122084362.265 0                                  95130653.276 0
  23231879.524                                  
  20988990.241   110297893.191 0                                  85946391.224 0
  20988989.999                                  
  21292488.341   111892765.527 0                                  87189170.508 0
  21292487.196                                  
  25299650.634   132950535.571 0                  25299654.214   103597793.659 0
  25299654.034                                  
  21007058.474   110392857.819 0                  21007058.611    86020392.844 0
  21007058.551                                  
  23606166.864   126188486.910 0                  23606167.328    98146600.033 0
                                                
  20442919.665   109432537.507 0                  20442920.332    85114192.545 0
                                                
  23741194.664   126776624.783 0                  23741195.844    98604031.137 0
                                                
  23677037.482   126611728.133 0                  23677041.271    98475777.280 0
                                                
  20041978.681   107248686.715 0                  20041978.779    83415644.946 0
                                                
  21021659.694   112215060.003 0                  21021659.790    87278383.246 0
                                                
 20  3 17  6 22 55.0000000  0 14G10G13G15G16G20G21G25G29R 5R 7R13R20
                                R21R22
  23509269.079   123542033.011 0                  23509272.013    96266497.177 0
  23509272.433                                  
  23307252.661   122480431.982 0                                  95439307.076 0
  23307252.354                                  
  21867271.992   114913276.310 0                  21867272.097    89542812.013 0
  21867272.017                                  
  23230630.743   122077797.862 0                                  95125538.157 0
  23230630.359                                  
  20987105.693   110287989.824 0                                  85938674.314 0
  20987105.451                                  
  21292122.473   111890842.878 0                                  87187672.340 0
  21292121.328                                  
  25303003.531   132968155.163 0                  25303007.110   103611523.212 0
  25303006.930                                  
  21008802.867   110402024.666 0                  21008803.004    86027535.842 0
  21008802.944                                  
  23609953.029   126208726.130 0                  23609953.492    98162341.648 0
                                                
  20439983.787   109416821.522 0                  20439984.454    85101969.001 0
                                                
  23740767.828   126774345.503 0                  23740769.008    98602258.363 0
                                                
  23679609.375   126625481.205 0                  23679613.165    98486474.113 0
                                                
  20042434.643   107251126.660 0                  20042434.741    83417542.681 0
                                                
  21019437.458   112203197.555 0                  21019437.553    87269156.898 0
                                                
 20  3 17  6 23  0.0000000  0 15G 5G10G13G15G16G20G21G25G29R 5R 7R13
                                R20R21R22
  25084751.948   131821253.379 0                  25084751.834   102717860.346 0
  25084751.734                                  
  23506263.940   123526241.137 0                  23506266.785    96254191.873 0
  23506267.225                                  
  23307191.072   122480108.330 0                                  95439054.887 0
  23307190.785                                  
  21866224.707   114907772.870 0                  21866224.807    89538523.638 0
  21866224.747                                  
  23229384.517   122071248.904 0                                  95120435.058 0
  23229384.013                                  
  20985223.186   110278097.187 0                                  85930965.768 0
  20985222.923                                  
  21291757.267   111888923.716 0                                  87186176.890 0
  21291756.103                                  
  25306355.752   132985771.406 0                  25306359.359   103625250.198 0
  25306359.179                                  
  21010549.534   110411203.458 0                  21010549.692    86034688.146 0
  21010549.632                                  
  23613740.521   126228972.458 0                  23613740.984    98178088.811 0
                                                
  20437050.866   109401121.370 0                  20437051.493    85089757.782 0
                                                
  23740344.733   126772086.367 0                  23740345.830    98600501.305 0
                                                
  23682182.380   126639239.945 0                  23682186.226    98497175.302 0
                                                
  20042892.543   107253576.839 0                  20042892.650    83419448.357 0
                                                
  21017215.931   112191338.832 0                  21017216.051    87259933.448 0
                                                
 20  3 17  6 23  5.0000000  0 15G 5G10G13G15G16G20G21G25G29R 5R 7R13
                                R20R21R22
  25088177.059   131839252.458 0                  25088176.945   102731885.602 0
  25088176.845                                  
  23503259.993   123510455.288 0                  23503262.838    96241891.211 0
  23503263.278                                  
  23307132.501   122479800.537 0                                  95438815.049 0
  23307132.214                                  
  21865180.444   114902285.230 0                  21865180.544    89534247.555 0
  21865180.484                                  
  23228141.235   122064715.413 0                                  95115344.026 0
  23228140.731                                  
  20983342.724   110268215.292 0                                  85923265.590 0
  20983342.461                                  
  21291392.734   111887008.079 0                                  87184684.186 0
  21291391.569                                  
  25309707.301   133003383.917 0                  25309710.908   103638974.233 0
  25309710.728                                  
  21012298.488   110420394.274 0                  21012298.646    86041849.821 0
  21012298.586                                  
  23617529.205   126249225.144 0                  23617529.668    98193840.901 0
                                                
  20434120.811   109385436.556 0                  20434121.438    85077558.482 0
                                                
  23739925.276   126769846.487 0                  23739926.372    98598759.176 0
                                                
  23684756.310   126653003.902 0                  23684760.156    98507880.603 0
                                                
  20043352.259   107256036.871 0                  20043352.366    83421361.716 0
                                                
  21014994.986   112179483.274 0                  21014995.105    87250712.458 0
                                                
 20  3 17  6 23 10.0000000  0 15G 5G10G13G15G16G20G21G25G29R 5R 7R13
                                R20R21R22
  25091602.221   131857251.803 0                  25091602.106   102745911.065 0
  25091602.006                                  
  23500257.198   123494675.496 0                  23500260.044    96229595.269 0
  23500260.484                                  
  23307076.944   122479508.581 0                                  95438587.551 0
  23307076.657                                  
  21864139.190   114896813.404 0                  21864139.290    89529983.795 0
  21864139.230                                  
  23226900.887   122058197.339 0                                  95110265.008 0
  23226900.383                                  
  20981464.293   110258344.074 0                                  85915573.731 0
  20981464.031                                  
  21291028.849   111885095.852 0                                  87183194.139 0
  21291027.684                                  
  25313058.164   133020992.818 0                  25313061.770   103652695.454 0
  25313061.590                                  
  21014049.706   110429596.986 0                  21014049.864    86049020.766 0
  21014049.804                                  
  23621319.161   126269484.631 0                  23621319.624    98209598.280 0
                                                
  20431193.707   109369767.538 0                  20431194.334    85065371.468 0
                                                
  23739509.554   126767626.554 0                  23739510.650    98597032.561 0
                                                
  23687331.312   126666773.596 0                  23687335.158    98518590.364 0
                                                
  20043813.882   107258507.107 0                  20043813.988    83423283.010 0
                                                
  21012774.743   112167631.466 0                  21012774.862    87241494.386 0
                                                
 20  3 17  6 23 15.0000000  0 15G 5G10G13G15G16G20G21G25G29R 5R 7R13
                                R20R21R22
  25095027.415   131875251.321 0                  25095027.301   102759936.664 0
  25095027.201                                  
  23497255.547   123478901.714 0                  23497258.393    96217304.011 0
  23497258.833                                  
  23307024.377   122479232.340 0                                  95438372.298 0
  23307024.090                                  
  21863100.933   114891357.327 0                  21863101.033    89525732.306 0
  21863100.973                                  
  23225663.456   122051694.593 0                                  95105197.933 0
  23225662.951                                  
  20979587.890   110248483.505 0                                  85907890.171 0
  20979587.627                                  
  21290665.603   111883186.983 0                                  87181706.709 0
  21290664.439                                  
  25316408.321   133038598.014 0                  25316411.928   103666413.788 0
  25316411.748                                  
  21015803.176   110438811.530 0                  21015803.333    86056200.930 0
  21015803.273                                  
  23625110.358   126289750.752 0                  23625110.821    98225360.818 0
                                                
  20428269.507   109354114.066 0                  20428270.133    85053196.545 0
                                                
  23739097.523   126765426.333 0                  23739098.619    98595321.278 0
                                                
  23689907.297   126680548.544 0                  23689911.143    98529304.213 0
                                                
  20044277.360   107260987.273 0                  20044277.466    83425212.028 0
                                                
  21010555.114   112155782.937 0                  21010555.233    87232278.862 0
                                                
 20  3 17  6 23 20.0000000  0 15G 5G10G13G15G16G20G21G25G29R 5R 7R13
                                R20R21R22
  25098452.635   131893250.971 0                  25098452.520   102773962.366 0
  25098452.420                                  
  23494255.033   123463133.908 0                  23494257.879    96205017.408 0
  23494258.319                                  
  23306974.801   122478971.816 0                                  95438169.292 0
  23306974.514                                  
  21862065.657   114885916.914 0                  21862065.757    89521493.023 0
  21862065.697                                  
  23224428.942   122045207.181 0                                  95100142.806 0
  23224428.438                                  
  20977713.501   110238633.525 0                                  85900214.862 0
  20977713.238                                  
  21290302.984   111881281.409 0                                  87180221.845 0
  21290301.820                                  
  25319757.767   133056199.472 0                  25319761.374   103680129.210 0
  25319761.194                                  
  21017558.886   110448037.851 0                  21017559.044    86063390.270 0
  21017558.984                                  
  23628902.811   126310023.584 0                  23628903.274    98241128.576 0
                                                
  20425348.234   109338476.262 0                  20425348.860    85041033.809 0
                                                
  23738689.194   126763245.877 0                  23738690.290    98593625.368 0
                                                
  23692484.284   126694328.853 0                  23692488.130    98540022.231 0
                                                
  20044742.713   107263477.471 0                  20044742.820    83427148.849 0
                                                
  21008336.135   112143937.875 0                  21008336.254    87223066.037 0
                                                
 20  3 17  6 23 25.0000000  0 15G 5G10G13G15G16G20G21G25G29R 5R 7R13
                                R20R21R22
  25101877.924   131911250.988 0                  25101877.810   102787988.353 0
  25101877.710                                  
  23491255.708   123447372.346 0                  23491258.554    96192735.672 0
  23491258.994                                  
  23306928.262   122478727.254 0                                  95437978.724 0
  23306927.975                                  
  21861033.405   114880492.392 0                  21861033.505    89517266.123 0
  21861033.445                                  
  23223197.395   122038735.359 0                                  95095099.828 0
  23223196.891                                  
  20975841.172   110228794.369 0                                  85892547.988 0
  20975840.909                                  
  21289941.045   111879379.401 0                                  87178739.762 0
  21289939.880                                  
  25323106.548   133073797.434 0                  25323110.155   103693841.908 0
  25323109.975                                  
  21019316.889   110457276.218 0                  21019317.047    86070588.998 0
  21019316.987                                  
  23632696.441   126330302.713 0                  23632696.904    98256901.232 0
                                                
  20422429.835   109322853.842 0                  20422430.461    85028883.038 0
                                                
  23738284.530   126761084.995 0                  23738285.626    98591944.682 0
                                                
  23695062.232   126708114.299 0                  23695066.078    98550744.244 0
                                                
  20045209.886   107265977.408 0                  20045209.993    83429093.244 0
                                                
  21006117.749   112132095.979 0                  21006117.868    87213855.673 0
                                                
 20  3 17  6 23 30.0000000  0 15G 5G10G13G15G16G20G21G25G29R 5R 7R13
                                R20R21R22
  25105303.220   131929251.110 0                  25105303.122   102802014.439 0
  25105303.022                                  
  23488257.514   123431616.830 0                  23488260.307    96180458.666 0
  23488260.747                                  
  23306884.708   122478498.443 0                                  95437800.447 0
  23306884.417                                  
  21860004.142   114875083.648 0                  21860004.258    89513051.534 0
  21860004.178                                  
  23221968.764   122032278.883 0                                  95090068.825 0
  23221968.292                                  
  20973970.843   110218965.865 0                                  85884889.439 0
  20973970.592                                  
  21289579.734   111877480.763 0                                  87177260.319 0
  21289578.585                                  
  25326454.620   133091391.528 0                  25326458.335   103707551.556 0
  25326458.155                                  
  21021077.150   110466526.390 0                  21021077.352    86077796.901 0
  21021077.292                                  
  23636491.350   126350588.755 0                  23636491.828    98272679.277 0
                                                
  20419514.403   109307247.498 0                  20419515.058    85016744.794 0
                                                
  23737883.584   126758944.061 0                  23737884.648    98590279.506 0
                                                
  23697641.269   126721905.490 0                  23697645.119    98561470.690 0
                                                
  20045678.989   107268487.803 0                  20045679.088    83431045.789 0
                                                
  21003900.041   112120257.943 0                  21003900.232    87204648.329 0
                                                
 20  3 17  6 23 35.0000000  0 15G 5G10G13G15G16G20G21G25G29R 5R 7R13
                                R20R21R22
  25108728.600   131947251.601 0                  25108728.501   102816040.795 0
  25108728.401                                  
  23485260.525   123415867.549 0                  23485263.318    96168186.498 0
  23485263.758                                  
  23306844.204   122478285.594 0                                  95437634.591 0
  23306843.913                                  
  21858977.929   114869690.862 0                  21858978.045    89508849.364 0
  21858977.965                                  
  23220743.118   122025838.071 0                                  95085050.010 0
  23220742.646                                  
  20972102.605   110209148.208 0                                  85877239.317 0
  20972102.354                                  
  21289219.119   111875585.721 0                                  87175783.663 0
  21289217.971                                  
  25329802.020   133108982.233 0                  25329805.735   103721258.599 0
  25329805.555                                  
  21022839.703   110475788.666 0                  21022839.904    86085014.258 0
  21022839.844                                  
  23640287.498   126370881.344 0                  23640287.976    98288462.402 0
                                                
  20416601.918   109291656.742 0                  20416602.573    85004618.650 0
                                                
  23737486.323   126756822.711 0                  23737487.387    98588629.567 0
                                                
  23700221.277   126735701.954 0                  23700225.128    98572201.273 0
                                                
  20046149.962   107271008.071 0                  20046150.060    83433005.998 0
                                                
  21001683.017   112108423.322 0                  21001683.208    87195443.624 0
                                                
 20  3 17  6 23 40.0000000  0 15G 5G10G13G15G16G20G21G25G29R 5R 7R13
                                R20R21R22
  25112153.988   131965252.136 0                  25112153.889   102830067.186 0
  25112153.789                                  
  23482264.679   123400124.270 0                  23482267.472    96155919.008 0
  23482267.912                                  
  23306806.688   122478088.444 0                                  95437480.968 0
  23306806.397                                  
  21857954.709   114864313.805 0                  21857954.825    89504659.449 0
  21857954.745                                  
  23219520.388   122019412.582 0                                  95080043.135 0
  23219519.916                                  
  20970236.377   110199341.111 0                                  85869597.423 0
  20970236.126                                  
  21288859.131   111873693.972 0                                  87174309.573 0
  21288857.983                                  
  25333148.694   133126569.126 0                  25333152.409   103734962.671 0
  25333152.229                                  
  21024604.490   110485062.687 0                  21024604.692    86092240.768 0
  21024604.632                                  
  23644084.870   126391180.474 0                  23644085.348    98304250.614 0
                                                
  20413692.367   109276081.685 0                  20413693.022    84992504.716 0
                                                
  23737092.760   126754721.107 0                  23737093.824    98586994.986 0
                                                
  23702802.290   126749503.788 0                  23702806.140    98582936.033 0
                                                
  20046622.813   107273538.395 0                  20046622.912    83434974.027 0
                                                
  20999466.630   112096592.094 0                  20999466.821    87186241.558 0
                                                
 20  3 17  6 23 45.0000000  0 15G 5G10G13G15G16G20G21G25G29R 5R 7R13
                                R20R21R22
  25115579.411   131983252.854 0                  25115579.312   102844093.720 0
  25115579.212                                  
  23479269.994   123384387.096 0                  23479272.787    96143656.275 0
  23479273.227                                  
  23306772.183   122477907.122 0                                  95437339.678 0
  23306771.892                                  
  21856934.500   114858952.567 0                  21856934.615    89500481.861 0
  21856934.535                                  
  23218300.599   122013002.547 0                                  95075048.303 0
  23218300.127                                  
  20968372.182   110189544.703 0                                  85861963.858 0
  20968371.931                                  
  21288499.796   111871805.652 0                                  87172838.155 0
  21288498.648                                  
  25336494.667   133144152.331 0                  25336498.382   103748663.870 0
  25336498.202                                  
  21026371.544   110494348.619 0                  21026371.746    86099476.560 0
  21026371.686                                  
  23647883.475   126411486.192 0                  23647883.953    98320043.950 0
                                                
  20410785.755   109260522.365 0                  20410786.410    84980403.023 0
                                                
  23736702.899   126752639.269 0                  23736703.963    98585375.779 0
                                                
  23705384.326   126763311.098 0                  23705388.177    98593675.051 0
                                                
  20047097.541   107276078.759 0                  20047097.640    83436949.867 0
                                                
  20997250.895   112084764.353 0                  20997251.086    87177042.204 0
                                                
 20  3 17  6 23 50.0000000  0 15G 5G10G13G15G16G20G21G25G29R 5R 7R13
                                R20R21R22
  25119004.865   132001253.737 0                  25119004.766   102858120.382 0
  25119004.666                                  
  23476276.479   123368656.064 0                  23476279.272    96131398.328 0
  23476279.712                                  
  23306740.694   122477741.642 0                                  95437210.732 0
  23306740.402                                  
  21855917.300   114853607.148 0                  21855917.416    89496316.600 0
  21855917.336                                  
  23217083.756   122006607.994 0                                  95070065.535 0
  23217083.284                                  
  20966510.025   110179758.997 0                                  85854338.633 0
  20966509.773                                  
  21288141.111   111869920.752 0                                  87171369.401 0
  21288139.963                                  
  25339839.936   133161731.838 0                  25339843.651   103762362.187 0
  25339843.471                                  
  21028140.857   110503646.418 0                  21028141.058    86106721.598 0
  21028140.998                                  
  23651683.278   126431798.319 0                  23651683.756    98335842.271 0
                                                
  20407882.081   109244978.767 0                  20407882.736    84968313.558 0
                                                
  23736316.731   126750577.155 0                  23736317.795    98583771.913 0
                                                
  23707967.369   126777123.787 0                  23707971.219    98604418.254 0
                                                
  20047574.145   107278629.160 0                  20047574.243    83438933.512 0
                                                
  20995035.827   112072940.171 0                  20995036.019    87167845.617 0
                                                
 20  3 17  6 23 55.0000000  0 15G 5G10G13G15G16G20G21G25G29R 5R 7R13
                                R20R21R22
  25122430.342   132019254.743 0                  25122430.244   102872147.140 0
  25122430.144                                  
  23473284.125   123352931.140 0                  23473286.918    96119145.141 0
  23473287.358                                  
  23306712.215   122477591.984 0                                  95437094.116 0
  23306711.924                                  
  21854903.122   114848277.608 0                  21854903.238    89492163.711 0
  21854903.158                                  
  23215869.858   122000228.917 0                                  95065094.825 0
  23215869.386                                  
  20964649.902   110169983.987 0                                  85846721.742 0
  20964649.651                                  
  21287783.073   111868039.248 0                                  87169903.295 0
  21287781.925                                  
  25343184.495   133179307.615 0                  25343188.210   103776057.598 0
  25343188.030                                  
  21029912.431   110512956.103 0                  21029912.632    86113975.897 0
  21029912.572                                  
  23655484.305   126452116.986 0                  23655484.783    98351645.679 0
                                                
  20404981.334   109229450.841 0                  20404981.989    84956236.283 0
                                                
  23735934.277   126748534.873 0                  23735935.341    98582183.471 0
                                                
  23710551.397   126790941.748 0                  23710555.248    98615165.557 0
                                                
  20048052.625   107281189.603 0                  20048052.723    83440924.967 0
                                                
  20992821.412   112061119.470 0                  20992821.603    87158651.739 0
                                                
 20  3 17  6 24  0.0000000  0 15G 5G10G13G15G16G20G21G25G29R 5R 7R13
                                R20R21R22
  25125855.776   132037255.774 0                  25125855.682   102886173.990 0
  25125855.582                                  
  23470292.872   123337212.179 0                  23470295.701    96106896.634 0
  23470296.121                                  
  23306686.696   122477457.952 0                                  95436989.701 0
  23306686.401                                  
  21853891.910   114842963.795 0                  21853891.997    89488023.113 0
  21853891.937                                  
  23214658.852   121993865.044 0                                  95060135.960 0
  23214658.432                                  
  20962791.767   110160219.497 0                                  85839113.083 0
  20962791.492                                  
  21287425.638   111866160.920 0                                  87168439.664 0
  21287424.509                                  
  25346528.273   133196879.527 0                  25346532.053   103789750.065 0
  25346531.873                                  
  21031686.235   110522277.401 0                  21031686.396    86121239.255 0
  21031686.356                                  
  23659286.555   126472442.280 0                  23659286.988    98367454.297 0
                                                
  20402083.542   109213938.818 0                  20402084.212    84944171.421 0
                                                
  23735555.515   126746512.295 0                  23735556.592    98580610.383 0
                                                
  23713136.461   126804765.246 0                  23713140.232    98625917.183 0
                                                
  20048532.984   107283760.112 0                  20048533.101    83442924.279 0
                                                
  20990607.654   112049302.356 0                  20990607.840    87149460.703 0
                                                
 20  3 17  6 24  5.0000000  0 15G 5G10G13G15G16G20G21G25G29R 5R 7R13
                                R20R21R22
  25129281.339   132055257.232 0                  25129281.245   102900201.100 0
  25129281.145                                  
  23467302.889   123321499.712 0                  23467305.717    96094653.153 0
  23467306.137                                  
  23306664.285   122477340.182 0                                  95436897.932 0
  23306663.990                                  
  21852883.821   114837666.248 0                  21852883.908    89483895.155 0
  21852883.848                                  
  23213450.877   121987517.093 0                                  95055189.505 0
  23213450.457                                  
  20960935.749   110150466.054 0                                  85831512.998 0
  20960935.473                                  
  21287068.933   111864286.420 0                                  87166979.014 0
  21287067.804                                  
  25349871.442   133214448.000 0                  25349875.223   103803439.785 0
  25349875.043                                  
  21033462.367   110531611.038 0                  21033462.528    86128512.218 0
  21033462.488                                  
  23663089.971   126492773.717 0                  23663090.404    98383267.637 0
                                                
  20399188.664   109198442.307 0                  20399189.333    84932118.580 0
                                                
  23735180.421   126744509.311 0                  23735181.497    98579052.507 0
                                                
  23715722.497   126818593.942 0                  23715726.268    98636672.835 0
                                                
  20049015.194   107286340.517 0                  20049015.312    83444931.261 0
                                                
  20988394.525   112037488.526 0                  20988394.711    87140272.168 0
                                                
 20  3 17  6 24 10.0000000  0 15G 5G10G13G15G16G20G21G25G29R 5R 7R13
                                R20R21R22
  25132706.906   132073258.703 0                  25132706.811   102914228.220 0
  25132706.711                                  
  23464314.052   123305793.267 0                  23464316.880    96082414.365 0
  23464317.300                                  
  23306644.865   122477238.129 0                                  95436818.410 0
  23306644.570                                  
  21851878.727   114832384.447 0                  21851878.814    89479779.466 0
  21851878.754                                  
  23212245.828   121981184.518 0                                  95050255.031 0
  23212245.409                                  
  20959081.745   110140723.200 0                                  85823921.164 0
  20959081.470                                  
  21286712.860   111862415.243 0                                  87165520.954 0
  21286711.731                                  
